{
"type": "FeatureCollection",
"crs": { "type": "name", "properties": { "name": "urn:ogc:def:crs:OGC:1.3:CRS84" } },
                                                                                
"features": [
{ "type": "Feature", "properties": { "id": 1, "nom": "Groupe scolaire Émile Zola", "type": "mat_pri", "Public": "Établissement public", "Adresse": "32 rue d'Aubry - 59300 Valenciennes", "Tel": "Maternelle : 03.27.46.45.88 | Primaire : 03.27.46.88.58", "Garderie": null, "Cantine": null, "photo": null }, "geometry": { "type": "Point", "coordinates": [ 3.482500674566257, 50.359943286892474 ] } },
{ "type": "Feature", "properties": { "id": 2, "nom": "Maternelle Louise Weiss", "type": "mat", "Public": "Établissement public", "Adresse": "Rue Jean-Baptiste Corot - 59300 Valenciennes", "Tel": "03.27.45.06.45", "Garderie": null, "Cantine": null, "photo": null }, "geometry": { "type": "Point", "coordinates": [ 3.487340459218975, 50.35457424640655 ] } },
{ "type": "Feature", "properties": { "id": 3, "nom": "Collège Chasse Royale", "type": "col", "Public": "Établissement public", "Adresse": "Rue Lomprez - 59300 Valenciennes", "Tel": "03.27.46.92.82", "Garderie": null, "Cantine": null, "photo": null }, "geometry": { "type": "Point", "coordinates": [ 3.489519860245468, 50.355175559096153 ] } },
{ "type": "Feature", "properties": { "id": 4, "nom": "Groupe scolaire Siméon Civeillier", "type": "mat_pri", "Public": "Établissement public", "Adresse": "Rue des Coquelicots - 59300 Valenciennes", "Tel": "Maternelle : 03.27.46.28.83 | Primaire : 03.27.46.51.78", "Garderie": null, "Cantine": null, "photo": null }, "geometry": { "type": "Point", "coordinates": [ 3.49461668354256, 50.356657199878335 ] } },
{ "type": "Feature", "properties": { "id": 5, "nom": "Lycée d'enseignement technique Dampierre", "type": "lyc_p", "Public": "Établissement privé", "Adresse": "Avenue de Denain", "Tel": "03.27.22.70.00", "Garderie": null, "Cantine": null, "photo": null }, "geometry": { "type": "Point", "coordinates": [ 3.500319548241639, 50.354136951549464 ] } },
{ "type": "Feature", "properties": { "id": 6, "nom": "Groupe scolaire des Acacias", "type": "mat_pri", "Public": "Établissement public", "Adresse": "2 (maternelle) et 8 (primaire) place des Acacias", "Tel": "Maternelle : 03.27.46.19.22 | Primaire : 03.27.46.29.45", "Garderie": null, "Cantine": null, "photo": null }, "geometry": { "type": "Point", "coordinates": [ 3.508760792276852, 50.359115452635592 ] } },
{ "type": "Feature", "properties": { "id": 7, "nom": "Lycée du Hainaut", "type": "lyc", "Public": "Établissement public", "Adresse": "Avenue Villars", "Tel": "03.27.22.95.95", "Garderie": null, "Cantine": null, "photo": null }, "geometry": { "type": "Point", "coordinates": [ 3.510944050657697, 50.357827302776194 ] } },
{ "type": "Feature", "properties": { "id": 8, "nom": "Lycée de l'Escaut", "type": "lyc", "Public": "Établissement public", "Adresse": "1 avenue de Saint-Amand", "Tel": "03.27.22.11.11", "Garderie": null, "Cantine": null, "photo": null }, "geometry": { "type": "Point", "coordinates": [ 3.513772398268004, 50.364657231760354 ] } },
{ "type": "Feature", "properties": { "id": 9, "nom": "Ecole élémentaire Jean Moulin", "type": "pri", "Public": "Établissement public", "Adresse": "79 rue du Chauffour", "Tel": "03.27.46.64.42", "Garderie": null, "Cantine": null, "photo": null }, "geometry": { "type": "Point", "coordinates": [ 3.516526632750417, 50.369191373796227 ] } },
{ "type": "Feature", "properties": { "id": 10, "nom": "Maternelle Anna Foucart", "type": "mat", "Public": "Établissement public", "Adresse": "13 bis rue Rosalie Levasseur", "Tel": "03.27.46.18.97", "Garderie": null, "Cantine": null, "photo": null }, "geometry": { "type": "Point", "coordinates": [ 3.514296318679722, 50.368701441683307 ] } },
{ "type": "Feature", "properties": { "id": 11, "nom": "Groupe scolaire Jean Mineur", "type": "mat_pri", "Public": "Établissement public", "Adresse": "232 avenue Désandrouin - 59300 Valenciennes", "Tel": "03.27.22.43.74", "Garderie": null, "Cantine": null, "photo": null }, "geometry": { "type": "Point", "coordinates": [ 3.488442454742123, 50.364615419844604 ] } },
{ "type": "Feature", "properties": { "id": 12, "nom": "Maternelle Hélène Boucher", "type": "mat", "Public": "Établissement public", "Adresse": "5 rue Pierre Dautel", "Tel": "03.27.46.65.19", "Garderie": null, "Cantine": null, "photo": null }, "geometry": { "type": "Point", "coordinates": [ 3.512969164379214, 50.342054750484508 ] } },
{ "type": "Feature", "properties": { "id": 13, "nom": "Groupe scolaire Saint-Exupéry", "type": "mat_pri", "Public": "Établissement public", "Adresse": "Chemin des Bourgeois", "Tel": "Maternelle : 03.27.46.18.65 | Primaire : 03.27.46.30.38", "Garderie": null, "Cantine": null, "photo": null }, "geometry": { "type": "Point", "coordinates": [ 3.517796566674841, 50.342977286758249 ] } },
{ "type": "Feature", "properties": { "id": 14, "nom": "Groupe scolaire Louis Duvant", "type": "mat_pri", "Public": "Établissement public", "Adresse": "3 rue René Mirland", "Tel": "03.27.46.19.39", "Garderie": null, "Cantine": null, "photo": null }, "geometry": { "type": "Point", "coordinates": [ 3.513348577617249, 50.350567027494876 ] } },
{ "type": "Feature", "properties": { "id": 15, "nom": "Ecole élementaire George Huisman", "type": "pri", "Public": "Établissement public", "Adresse": "13 avenue du Sergent Cairns", "Tel": "03.27.46.17.20", "Garderie": null, "Cantine": null, "photo": null }, "geometry": { "type": "Point", "coordinates": [ 3.524371331775555, 50.351348978369209 ] } },
{ "type": "Feature", "properties": { "id": 16, "nom": "Maternelle Jean Bonmarché", "type": "mat", "Public": "Établissement public", "Adresse": "14 rue Jean Bonmarché", "Tel": "03.27.46.05.18", "Garderie": null, "Cantine": null, "photo": null }, "geometry": { "type": "Point", "coordinates": [ 3.525098004898602, 50.351703469395567 ] } },
{ "type": "Feature", "properties": { "id": 17, "nom": "Ecole élémentaire Henri Lemaitre", "type": "pri", "Public": "Établissement public", "Adresse": "38 boulevard Carpeaux", "Tel": "03.27.46.66.99", "Garderie": null, "Cantine": null, "photo": null }, "geometry": { "type": "Point", "coordinates": [ 3.524040923555635, 50.352661657886394 ] } },
{ "type": "Feature", "properties": { "id": 18, "nom": "Groupe scolaire Marie Immaculée", "type": "mat_pri_p", "Public": "Établissement privé", "Adresse": "145 rue de Famars", "Tel": "03.27.46.26.29", "Garderie": null, "Cantine": null, "photo": null }, "geometry": { "type": "Point", "coordinates": [ 3.523053407065087, 50.353848770810949 ] } },
{ "type": "Feature", "properties": { "id": 19, "nom": "Groupe scolaire Saint-Jean-Baptiste", "type": "mat_pri_p", "Public": "Établissement privé", "Adresse": "8 impasse des Cardinaux", "Tel": "03.27.46.33.07", "Garderie": null, "Cantine": null, "photo": null }, "geometry": { "type": "Point", "coordinates": [ 3.520437121855549, 50.35445730606898 ] } },
{ "type": "Feature", "properties": { "id": 20, "nom": "Collège Saint-Jean-Baptiste", "type": "col_p", "Public": "Établissement privé", "Adresse": "28 rue du Faubourg de Pais", "Tel": "03.27.46.14.02", "Garderie": null, "Cantine": null, "photo": null }, "geometry": { "type": "Point", "coordinates": [ 3.513932641465053, 50.354614039854724 ] } },
{ "type": "Feature", "properties": { "id": 21, "nom": "Groupe scolaire Françoise Badar", "type": "mat_pri", "Public": "Établissement public", "Adresse": "22 rue Capron", "Tel": "03.27.33.37.01", "Garderie": null, "Cantine": null, "photo": null }, "geometry": { "type": "Point", "coordinates": [ 3.520132477510284, 50.357414380796357 ] } },
{ "type": "Feature", "properties": { "id": 22, "nom": "Collège Jean-Baptiste Carpeaux", "type": "col", "Public": "Établissement public", "Adresse": "Rue Edmond Membrée", "Tel": "03.27.46.24.78", "Garderie": null, "Cantine": null, "photo": null }, "geometry": { "type": "Point", "coordinates": [ 3.519516063446312, 50.360387500414546 ] } },
{ "type": "Feature", "properties": { "id": 23, "nom": "Groupe scolaire du Cariot", "type": "mat_pri", "Public": "Établissement public", "Adresse": "rue du Cariot", "Tel": "Maternelle : 03.27.46.91.00 | Primaire : 03.27.41.57.49", "Garderie": null, "Cantine": null, "photo": null }, "geometry": { "type": "Point", "coordinates": [ 3.520192745745878, 50.360248533416275 ] } },
{ "type": "Feature", "properties": { "id": 24, "nom": "Groupe scolaire Sainte-Marie", "type": "mat_pri_col_p", "Public": "Établissement privé", "Adresse": "56 avenue Clémenceau (maternelle et primaire) et 20 à 30 rue Derrière les Murs de Bavay (collège)", "Tel": "03.27.20.06.60", "Garderie": null, "Cantine": null, "photo": null }, "geometry": { "type": "Point", "coordinates": [ 3.521793674498238, 50.361084451223086 ] } },
{ "type": "Feature", "properties": { "id": 25, "nom": "Lycée Henri Wallon", "type": "lyc", "Public": "Établissement public", "Adresse": "Place de la République", "Tel": "03.27.19.30.40", "Garderie": null, "Cantine": null, "photo": null }, "geometry": { "type": "Point", "coordinates": [ 3.520763728420218, 50.364002343827458 ] } },
{ "type": "Feature", "properties": { "id": 26, "nom": "Collège Charles Eisen", "type": "col", "Public": "Établissement public", "Adresse": "22 rue du Collège", "Tel": "03.27.20.11.11", "Garderie": null, "Cantine": null, "photo": null }, "geometry": { "type": "Point", "coordinates": [ 3.531932826808579, 50.365003033232107 ] } },
{ "type": "Feature", "properties": { "id": 27, "nom": "Groupe scolaire Notre-Dame", "type": "mat_pri_p", "Public": "Établissement privé", "Adresse": "15 rue du Marquis", "Tel": "03.27.46.19.70", "Garderie": null, "Cantine": null, "photo": null }, "geometry": { "type": "Point", "coordinates": [ 3.540412054930342, 50.363047642941261 ] } },
{ "type": "Feature", "properties": { "id": 28, "nom": "Maternelle Germaine Coty", "type": "mat", "Public": "Établissement public", "Adresse": "Rue Germaine Coty", "Tel": "03.27.33.38.40", "Garderie": null, "Cantine": null, "photo": null }, "geometry": { "type": "Point", "coordinates": [ 3.537517522206734, 50.35876857379138 ] } },
{ "type": "Feature", "properties": { "id": 29, "nom": "Ecole élémentaire Plaine de Mons", "type": "pri", "Public": "Établissement public", "Adresse": "2 rue du Champ de Manœuvres", "Tel": "03.27.32.01.53 | 03.27.28.24.90 (IEM)", "Garderie": null, "Cantine": null, "photo": null }, "geometry": { "type": "Point", "coordinates": [ 3.534442359852815, 50.360488253603251 ] } },
{ "type": "Feature", "properties": { "id": 30, "nom": "Lycée Watteau", "type": "lyc", "Public": "Établissement public", "Adresse": "Boulevard Pater", "Tel": "03.27.28.27.00", "Garderie": null, "Cantine": null, "photo": null }, "geometry": { "type": "Point", "coordinates": [ 3.531327741495895, 50.358703658083819 ] } },
{ "type": "Feature", "properties": { "id": 31, "nom": "Collège Watteau", "type": "col", "Public": "Établissement public", "Adresse": "20 bis boulevard Pater BP 395", "Tel": "03.27.45.31.77", "Garderie": null, "Cantine": null, "photo": null }, "geometry": { "type": "Point", "coordinates": [ 3.531164639648111, 50.359949968359828 ] } },
{ "type": "Feature", "properties": { "id": 32, "nom": "Lycée Notre-Dame", "type": "lyc_p", "Public": "Établissement privé", "Adresse": "11 rue des Capucins", "Tel": "03.27.41.27.41", "Garderie": null, "Cantine": null, "photo": null }, "geometry": { "type": "Point", "coordinates": [ 3.52996146344048, 50.359086583486665 ] } },
{ "type": "Feature", "properties": { "id": 33, "nom": "Lycée La Sagesse", "type": "lyc_p", "Public": "Établissement privé", "Adresse": "40 rue de Mons", "Tel": "03.27.46.27.33", "Garderie": null, "Cantine": null, "photo": null }, "geometry": { "type": "Point", "coordinates": [ 3.529667171950135, 50.359665053738155 ] } },
{ "type": "Feature", "properties": { "id": 34, "nom": "Maternelle Mathieu de Quinvigny", "type": "mat", "Public": "Établissement public", "Adresse": "9 rue Mathieu de Quinvigny", "Tel": "03.27.46.29.67", "Garderie": null, "Cantine": null, "photo": null }, "geometry": { "type": "Point", "coordinates": [ 3.528307541182957, 50.358965005711084 ] } },
{ "type": "Feature", "properties": { "id": 35, "nom": "Ecole élémentaire Froissart", "type": "pri", "Public": "Établissement public", "Adresse": "15 place Froissart", "Tel": "03.27.46.32.57", "Garderie": null, "Cantine": null, "photo": null }, "geometry": { "type": "Point", "coordinates": [ 3.527878285458348, 50.360168070635282 ] } }
]
}
